{"name":"Velopumpstation","type":"FeatureCollection"
,"features":[
{"type":"Feature","geometry":{"type":"Point","coordinates":[8.55600561409672,47.369384427608]},"properties":{"Typ":"Handpumpe","Bezeichnung":"GZ Hottingen"}}
,{"type":"Feature","geometry":{"type":"Point","coordinates":[8.57371208311761,47.3988794031845]},"properties":{"Typ":"Handpumpe","Bezeichnung":"Ziegelhütten"}}
,{"type":"Feature","geometry":{"type":"Point","coordinates":[8.53518750789987,47.368935536871]},"properties":{"Typ":"Handpumpe","Bezeichnung":"Bärenbrücke West"}}
,{"type":"Feature","geometry":{"type":"Point","coordinates":[8.52171305642409,47.3686242860073]},"properties":{"Typ":"Handpumpe","Bezeichnung":"Gotthelf-/Zurlindenstrasse"}}
,{"type":"Feature","geometry":{"type":"Point","coordinates":[8.53063699664455,47.3647839620367]},"properties":{"Typ":"Handpumpe","Bezeichnung":"Bahnhof Enge, gegenüber Bederstrasse 3"}}
,{"type":"Feature","geometry":{"type":"Point","coordinates":[8.5483092311141,47.377184374732]},"properties":{"Typ":"Handpumpe","Bezeichnung":"ETH Hauptgebäude, Rämi-/Tannenstrasse"}}
,{"type":"Feature","geometry":{"type":"Point","coordinates":[8.52559857966994,47.3760316954702]},"properties":{"Typ":"Druckluft","Bezeichnung":"Kanzleiareal (Bushaltestelle Helvetiaplatz)"}}
,{"type":"Feature","geometry":{"type":"Point","coordinates":[8.53119900586467,47.3708691194843]},"properties":{"Typ":"Handpumpe","Bezeichnung":"Sihlhölzlistrasse 3"}}
,{"type":"Feature","geometry":{"type":"Point","coordinates":[8.51744898985435,47.3858451406822]},"properties":{"Typ":"Handpumpe","Bezeichnung":"Bahnhof Hardbrücke"}}
,{"type":"Feature","geometry":{"type":"Point","coordinates":[8.52800667344044,47.3481903507331]},"properties":{"Typ":"Handpumpe","Bezeichnung":"Mutschellenstrasse 114"}}
,{"type":"Feature","geometry":{"type":"Point","coordinates":[8.49360000962009,47.3985294149545]},"properties":{"Typ":"Handpumpe","Bezeichnung":"Meierwiesenstrasse 4"}}
,{"type":"Feature","geometry":{"type":"Point","coordinates":[8.54190893167074,47.394263299447]},"properties":{"Typ":"Handpumpe","Bezeichnung":"Scheuchzerstrasse 181"}}
,{"type":"Feature","geometry":{"type":"Point","coordinates":[8.5430599308055,47.3741847750586]},"properties":{"Typ":"Handpumpe","Bezeichnung":"Limmatquai 94"}}
,{"type":"Feature","geometry":{"type":"Point","coordinates":[8.54163644952535,47.3760420237582]},"properties":{"Typ":"Handpumpe","Bezeichnung":"Beatenplatz"}}
,{"type":"Feature","geometry":{"type":"Point","coordinates":[8.54486848017179,47.3662854004924]},"properties":{"Typ":"Handpumpe","Bezeichnung":"Bellerivestrasse"}}
,{"type":"Feature","geometry":{"type":"Point","coordinates":[8.52697705809769,47.3877072944509]},"properties":{"Typ":"Handpumpe","Bezeichnung":"Otto-/Limmatstrasse"}}
,{"type":"Feature","geometry":{"type":"Point","coordinates":[8.52406085811348,47.4135736482514]},"properties":{"Typ":"Handpumpe","Bezeichnung":"Zelglistrasse/Binzmühlestrasse"}}
,{"type":"Feature","geometry":{"type":"Point","coordinates":[8.56316491117639,47.4109615318633]},"properties":{"Typ":"Handpumpe","Bezeichnung":"Saatlen-/Wallisellenstrasse"}}
,{"type":"Feature","geometry":{"type":"Point","coordinates":[8.53741376827512,47.379464649857]},"properties":{"Typ":"Handpumpe","Bezeichnung":"HB Nord"}}
,{"type":"Feature","geometry":{"type":"Point","coordinates":[8.57182928502799,47.381708464869]},"properties":{"Typ":"Handpumpe","Bezeichnung":"Tramschlaufe Zoo"}}
,{"type":"Feature","geometry":{"type":"Point","coordinates":[8.55142102974516,47.3639091682175]},"properties":{"Typ":"Handpumpe","Bezeichnung":"Kreuz-/Mühlebachstrasse"}}
,{"type":"Feature","geometry":{"type":"Point","coordinates":[8.53575598471624,47.3856645052928]},"properties":{"Typ":"Handpumpe","Bezeichnung":"Lux-Guyer-Weg, Höhe Oberer Letten"}}
,{"type":"Feature","geometry":{"type":"Point","coordinates":[8.5480323797759,47.3663197015738]},"properties":{"Typ":"Handpumpe","Bezeichnung":"Stadelhoferplatz"}}
,{"type":"Feature","geometry":{"type":"Point","coordinates":[8.53552248100955,47.382196729487]},"properties":{"Typ":"Handpumpe","Bezeichnung":"Museum für Gestaltung"}}
,{"type":"Feature","geometry":{"type":"Point","coordinates":[8.57248682590212,47.4046374322763]},"properties":{"Typ":"Handpumpe","Bezeichnung":"Schwamendingerplatz/Herzogenmühlestrasse (bei Veloabstellplätzen)"}}
,{"type":"Feature","geometry":{"type":"Point","coordinates":[8.59659131385277,47.397697561862]},"properties":{"Typ":"Druckluft","Bezeichnung":"Bahnhof Stettbach (in der neuen Velostation)"}}
,{"type":"Feature","geometry":{"type":"Point","coordinates":[8.53553187830249,47.361161276578]},"properties":{"Typ":"Handpumpe","Bezeichnung":"Mythenquai (Kiosk/Parkplatz Hafen Enge)"}}
,{"type":"Feature","geometry":{"type":"Point","coordinates":[8.53503205501134,47.3756880754862]},"properties":{"Typ":"Handpumpe","Bezeichnung":"Gessnerallee (bei der Sigi-Feigel-Terasse)"}}
,{"type":"Feature","geometry":{"type":"Point","coordinates":[8.51896662548417,47.3918746277715]},"properties":{"Typ":"Handpumpe","Bezeichnung":"Hardturmstrasse (Ampèresteg/Fischerweg)"}}
,{"type":"Feature","geometry":{"type":"Point","coordinates":[8.48809758483059,47.3915423884675]},"properties":{"Typ":"Handpumpe","Bezeichnung":"Bahnhof Altstetten/Velostation"}}
,{"type":"Feature","geometry":{"type":"Point","coordinates":[8.54392640363413,47.3679643038589]},"properties":{"Typ":"Druckluft","Bezeichnung":"Utoquai, bei Pier 7"}}
,{"type":"Feature","geometry":{"type":"Point","coordinates":[8.49688239786268,47.36630821018]},"properties":{"Typ":"Druckluft","Bezeichnung":"Stadtspital Triemli"}}
,{"type":"Feature","geometry":{"type":"Point","coordinates":[8.50585005748513,47.3612029798131]},"properties":{"Typ":"Handpumpe","Bezeichnung":"Schweighofstrasse 245"}}
,{"type":"Feature","geometry":{"type":"Point","coordinates":[8.52670914615687,47.3721303864957]},"properties":{"Typ":"Handpumpe","Bezeichnung":"Werdstrasse 75"}}
,{"type":"Feature","geometry":{"type":"Point","coordinates":[8.52896331380827,47.3817176300102]},"properties":{"Typ":"Handpumpe","Bezeichnung":"Langstrasse 175"}}
,{"type":"Feature","geometry":{"type":"Point","coordinates":[8.51477534033268,47.3743810318539]},"properties":{"Typ":"Handpumpe","Bezeichnung":"Idaplatz"}}
]}
